City_ID,City,Country,Date,Lat,Lng,Max Temp,Humidity,Cloudiness,Wind Speed,Current Description,Rain inches (last 3 hrs),Snow inches (last 3 hrs)
0,Ancud,CL,2020-04-18 01:23:56,-41.87,-73.82,55.4,100,100,4.7,light rain,0.12,0.0
1,Saskylakh,RU,2020-04-18 01:23:56,71.92,114.08,2.48,88,8,5.28,clear sky,0.0,0.0
2,Kapaa,US,2020-04-18 01:20:55,22.08,-159.32,80.6,61,1,11.41,clear sky,0.0,0.0
3,Bambous Virieux,MU,2020-04-18 01:23:56,-20.34,57.76,75.2,78,40,3.36,scattered clouds,0.0,0.0
4,Busselton,AU,2020-04-18 01:23:57,-33.65,115.33,59.0,94,100,5.84,overcast clouds,0.0,0.0
5,Jamestown,US,2020-04-18 01:22:40,42.1,-79.24,33.01,92,90,4.7,light snow,0.0,0.0
6,Rikitea,PF,2020-04-18 01:23:58,-23.12,-134.97,77.23,64,31,1.34,scattered clouds,0.0,0.0
7,Mataura,NZ,2020-04-18 01:23:58,-46.19,168.86,57.99,69,96,10.0,light rain,1.93,0.0
8,Karoi,ZW,2020-04-18 01:23:58,-16.81,29.69,65.79,52,30,8.48,scattered clouds,0.0,0.0
9,Kodiak,US,2020-04-18 01:21:27,57.79,-152.41,51.8,76,90,10.29,overcast clouds,0.0,0.0
10,Punta Arenas,CL,2020-04-18 01:22:50,-53.15,-70.92,51.8,66,84,11.41,broken clouds,0.0,0.0
11,Albany,US,2020-04-18 01:22:32,42.6,-73.97,41.0,69,100,2.48,overcast clouds,0.0,0.0
12,Cape Town,ZA,2020-04-18 01:20:02,-33.93,18.42,60.01,71,79,3.36,broken clouds,0.0,0.0
13,Thompson,CA,2020-04-18 01:24:00,55.74,-97.86,32.0,92,90,6.93,light snow,0.0,0.0
14,Torbay,CA,2020-04-18 01:24:00,47.67,-52.73,32.0,58,40,6.93,scattered clouds,0.0,0.0
15,Koslan,RU,2020-04-18 01:24:00,63.46,48.9,33.15,92,100,5.97,overcast clouds,0.0,0.0
16,Arraial Do Cabo,BR,2020-04-18 01:24:01,-22.97,-42.03,73.9,70,100,12.01,overcast clouds,0.0,0.0
17,Isangel,VU,2020-04-18 01:24:01,-19.55,169.27,86.0,70,75,5.82,broken clouds,0.0,0.0
18,Kyren,RU,2020-04-18 01:24:01,51.68,102.14,36.23,57,81,6.8,light snow,0.0,1.47
19,Castro,BR,2020-04-18 01:24:01,-24.79,-50.01,54.32,53,26,4.29,scattered clouds,0.0,0.0
20,Avarua,CK,2020-04-18 01:24:02,-21.21,-159.78,82.4,61,64,6.93,broken clouds,0.0,0.0
21,Bluff,NZ,2020-04-18 01:22:47,-46.6,168.33,57.99,69,93,10.0,light rain,0.52,0.0
22,Tiksi,RU,2020-04-18 01:24:02,71.69,128.87,5.2,92,100,5.1,light snow,0.0,0.11
23,Mahebourg,MU,2020-04-18 01:24:02,-20.41,57.7,75.2,78,40,3.36,scattered clouds,0.0,0.0
24,Tuktoyaktuk,CA,2020-04-18 01:24:03,69.45,-133.04,15.8,85,90,12.75,light snow,0.0,0.0
25,Georgetown,MY,2020-04-18 01:21:09,5.41,100.34,84.2,78,20,3.36,few clouds,0.0,0.0
26,Carutapera,BR,2020-04-18 01:24:03,-1.2,-46.02,76.96,88,100,6.85,moderate rain,3.46,0.0
27,Marrakesh,MA,2020-04-18 01:24:03,31.63,-8.01,64.4,59,40,5.82,scattered clouds,0.0,0.0
28,Hermanus,ZA,2020-04-18 01:24:04,-34.42,19.23,57.0,86,92,5.01,overcast clouds,0.0,0.0
29,Khatanga,RU,2020-04-18 01:24:04,71.97,102.5,10.51,91,0,11.99,clear sky,0.0,0.0
30,Longyearbyen,SJ,2020-04-18 01:22:46,78.22,15.64,30.2,92,75,8.05,broken clouds,0.0,0.0
31,Ushuaia,AR,2020-04-18 01:21:41,-54.8,-68.3,51.8,40,40,19.46,scattered clouds,0.0,0.0
32,Saint-Denis,FR,2020-04-18 01:24:05,48.92,2.33,64.4,59,91,12.75,light rain,2.51,0.0
33,San Andres,CO,2020-04-18 01:22:50,12.58,-81.7,82.4,69,20,11.41,few clouds,0.0,0.0
34,Ndele,CF,2020-04-18 01:24:05,8.41,20.65,76.51,21,45,2.95,scattered clouds,0.0,0.0
35,Hambantota,LK,2020-04-18 01:24:06,6.12,81.12,77.0,100,20,2.24,few clouds,0.0,0.0
36,Caravelas,BR,2020-04-18 01:24:06,-17.71,-39.25,78.08,86,23,14.56,light rain,2.5,0.0
37,Yulara,AU,2020-04-18 01:24:06,-25.24,130.99,75.2,36,50,12.75,scattered clouds,0.0,0.0
38,Ust-Tsilma,RU,2020-04-18 01:24:06,65.44,52.15,34.21,94,100,5.44,overcast clouds,0.0,0.0
39,Sena Madureira,BR,2020-04-18 01:22:26,-9.07,-68.66,71.96,68,68,1.7,broken clouds,0.0,0.0
40,Salalah,OM,2020-04-18 01:24:07,17.02,54.09,78.8,74,20,2.24,few clouds,0.0,0.0
41,Tasiilaq,GL,2020-04-18 01:24:07,65.61,-37.64,33.8,86,100,14.99,light snow,0.0,0.0
42,Zhangye,CN,2020-04-18 01:24:07,38.93,100.45,48.56,37,85,2.64,overcast clouds,0.0,0.0
43,Aklavik,CA,2020-04-18 01:24:07,68.22,-135.01,33.8,74,75,4.7,broken clouds,0.0,0.0
44,Makakilo City,US,2020-04-18 01:24:08,21.35,-158.09,84.2,45,1,6.93,clear sky,0.0,0.0
45,Havoysund,NO,2020-04-18 01:24:08,71.0,24.66,37.4,69,75,35.57,shower rain,0.0,0.0
46,Swift Current,CA,2020-04-18 01:24:08,50.28,-107.8,44.6,75,90,12.75,overcast clouds,0.0,0.0
47,Nikolskoye,RU,2020-04-18 01:24:09,59.7,30.79,37.4,91,75,15.66,broken clouds,0.0,0.0
48,Lebu,CL,2020-04-18 01:24:09,-37.62,-73.65,61.66,92,100,5.12,light rain,0.51,0.0
49,Vaini,TO,2020-04-18 01:24:09,-21.2,-175.2,82.4,69,20,10.29,smoke,0.0,0.0
50,Saint-Philippe,RE,2020-04-18 01:24:09,-21.36,55.77,73.4,69,75,9.17,broken clouds,0.0,0.0
51,Qaanaaq,GL,2020-04-18 01:24:10,77.48,-69.36,13.35,82,0,3.85,clear sky,0.0,0.0
52,Nemuro,JP,2020-04-18 01:24:10,43.32,145.57,57.2,28,20,5.82,few clouds,0.0,0.0
53,Edson,CA,2020-04-18 01:24:10,53.58,-116.44,46.4,52,1,8.05,clear sky,0.0,0.0
54,San Patricio,MX,2020-04-18 01:24:11,19.22,-104.7,78.8,74,5,9.78,clear sky,0.0,0.0
55,Saldanha,ZA,2020-04-18 01:24:11,-33.01,17.94,53.6,76,62,3.36,broken clouds,0.0,0.0
56,Ingham,US,2020-04-18 01:24:11,42.6,-84.38,35.01,87,90,2.71,overcast clouds,0.0,0.0
57,Faya,SA,2020-04-18 01:24:11,18.39,42.45,68.0,93,1,6.93,clear sky,0.0,0.0
58,Swan Hill,AU,2020-04-18 01:24:11,-35.34,143.55,58.64,55,8,7.67,clear sky,0.0,0.0
59,Yerbogachen,RU,2020-04-18 01:21:10,61.28,108.01,16.97,89,33,9.24,scattered clouds,0.0,0.0
60,Bubaque,GW,2020-04-18 01:24:12,11.28,-15.83,80.91,63,7,21.41,clear sky,0.0,0.0
61,Brae,GB,2020-04-18 01:24:12,60.4,-1.35,37.4,73,5,2.24,clear sky,0.0,0.0
62,Port Hardy,CA,2020-04-18 01:24:13,50.7,-127.42,53.6,71,40,13.87,scattered clouds,0.0,0.0
63,Clyde River,CA,2020-04-18 01:24:13,70.47,-68.59,6.8,77,90,14.99,light snow,0.0,0.0
64,Yaan,NG,2020-04-18 01:24:13,7.38,8.57,81.54,70,80,11.77,broken clouds,0.0,0.0
65,Atar,MR,2020-04-18 01:24:14,20.52,-13.05,77.77,24,83,4.25,broken clouds,0.0,0.0
66,Beni,CD,2020-04-18 01:24:15,0.5,29.47,63.61,74,100,2.3,light rain,1.72,0.0
67,Sesheke,ZM,2020-04-18 01:24:15,-17.48,24.3,64.4,93,33,1.12,scattered clouds,0.0,0.0
68,Bardiyah,LY,2020-04-18 01:20:07,31.76,25.09,58.59,78,12,7.56,few clouds,0.0,0.0
69,Ponta Do Sol,PT,2020-04-18 01:24:15,32.67,-17.1,57.0,70,15,7.0,few clouds,0.0,0.0
70,Kavieng,PG,2020-04-18 01:24:15,-2.57,150.8,81.95,74,94,1.03,overcast clouds,0.0,0.0
71,Pangnirtung,CA,2020-04-18 01:22:35,66.15,-65.71,1.85,89,100,4.25,overcast clouds,0.0,0.0
72,Salinopolis,BR,2020-04-18 01:24:16,-0.61,-47.36,78.53,83,100,5.91,light rain,2.32,0.0
73,Vardo,NO,2020-04-18 01:24:16,70.37,31.11,33.48,96,100,27.13,light snow,0.0,0.94
74,Waingapu,ID,2020-04-18 01:24:16,-9.66,120.26,82.51,78,36,6.15,scattered clouds,0.0,0.0
75,Naze,JP,2020-04-18 01:24:17,28.37,129.48,69.8,88,75,2.24,light intensity shower rain,0.0,0.0
76,Cockburn Town,TC,2020-04-18 01:24:17,21.46,-71.14,78.84,80,0,18.34,clear sky,0.0,0.0
77,Grand-Santi,GF,2020-04-18 01:24:17,4.25,-54.38,74.37,93,100,3.2,light rain,1.18,0.0
78,Daru,PG,2020-04-18 01:24:18,-9.08,143.21,84.09,71,81,6.11,broken clouds,0.0,0.0
79,Hithadhoo,MV,2020-04-18 01:24:18,-0.6,73.08,83.73,79,73,12.3,light rain,0.21,0.0
80,Poopo,BO,2020-04-18 01:24:19,-18.37,-66.97,44.6,70,75,11.41,broken clouds,0.0,0.0
81,Tautira,PF,2020-04-18 01:24:19,-17.73,-149.15,87.8,66,86,6.93,overcast clouds,0.0,0.0
82,Orissaare,EE,2020-04-18 01:24:19,58.56,23.08,39.0,70,7,8.99,clear sky,0.0,0.0
83,Port Elizabeth,ZA,2020-04-18 01:22:06,-33.92,25.57,62.6,88,80,5.82,broken clouds,0.0,0.0
84,Jiuquan,CN,2020-04-18 01:24:20,39.74,98.52,48.43,31,89,6.26,overcast clouds,0.0,0.0
85,Hobart,AU,2020-04-18 01:24:20,-42.88,147.33,55.99,43,20,17.22,few clouds,0.0,0.0
86,Muravlenko,RU,2020-04-18 01:24:20,63.79,74.52,37.99,91,100,16.2,overcast clouds,0.0,0.0
87,Butaritari,KI,2020-04-18 01:24:20,3.07,172.79,82.47,80,94,16.69,moderate rain,3.22,0.0
88,Amarillo,US,2020-04-18 01:22:26,35.22,-101.83,50.0,43,1,5.82,clear sky,0.0,0.0
89,Mount Gambier,AU,2020-04-18 01:24:21,-37.83,140.77,59.0,62,90,5.82,overcast clouds,0.0,0.0
90,Kanigiri,IN,2020-04-18 01:24:21,15.4,79.52,75.29,92,6,5.35,clear sky,0.0,0.0
91,Solnechnyy,RU,2020-04-18 01:24:21,50.72,136.63,39.18,61,47,3.18,scattered clouds,0.0,0.0
92,Omboue,GA,2020-04-18 01:23:44,-1.57,9.26,78.03,88,100,6.15,overcast clouds,0.0,0.0
93,Victoria,HK,2020-04-18 01:22:17,22.29,114.16,77.0,73,100,8.01,overcast clouds,0.0,0.0
94,Atuona,PF,2020-04-18 01:24:22,-9.8,-139.03,82.22,74,87,13.09,overcast clouds,0.0,0.0
95,Bredasdorp,ZA,2020-04-18 01:24:23,-34.53,20.04,55.0,87,97,4.7,overcast clouds,0.0,0.0
96,Vao,NC,2020-04-18 01:24:23,-22.67,167.48,74.84,69,61,8.21,broken clouds,0.0,0.0
97,Carnarvon,AU,2020-04-18 01:20:16,-24.87,113.63,80.6,69,95,5.82,overcast clouds,0.0,0.0
98,Qaqortoq,GL,2020-04-18 01:24:23,60.72,-46.03,30.2,68,98,14.99,overcast clouds,0.0,0.0
99,Mae Sai,TH,2020-04-18 01:24:23,20.43,99.88,79.0,69,83,0.58,mist,0.0,0.0
100,Harnosand,SE,2020-04-18 01:24:24,62.63,17.94,35.01,85,0,11.41,clear sky,0.0,0.0
101,Puerto Ayora,EC,2020-04-18 01:24:24,-0.74,-90.35,78.8,88,75,3.36,broken clouds,0.0,0.0
102,East London,ZA,2020-04-18 01:24:24,-33.02,27.91,65.86,82,1,12.21,clear sky,0.0,0.0
103,Bundaberg,AU,2020-04-18 01:23:02,-24.85,152.35,86.0,45,74,6.93,broken clouds,0.0,0.0
104,La Ciotat,FR,2020-04-18 01:24:25,43.17,5.6,58.46,79,100,8.39,overcast clouds,0.0,0.0
105,Kaitangata,NZ,2020-04-18 01:24:25,-46.28,169.85,53.01,83,100,24.0,moderate rain,3.7,0.0
106,Jinchang,CN,2020-04-18 01:24:25,38.5,102.17,48.0,26,60,7.56,broken clouds,0.0,0.0
107,Eyl,SO,2020-04-18 01:24:26,7.98,49.82,82.38,77,48,10.74,light rain,0.51,0.0
108,Luanda,AO,2020-04-18 01:24:26,-8.84,13.23,78.8,94,75,85.23,broken clouds,0.0,0.0
109,Birao,CF,2020-04-18 01:24:26,10.28,22.79,76.87,13,89,5.77,overcast clouds,0.0,0.0
110,Amapa,BR,2020-04-18 01:24:26,1.0,-52.0,73.49,93,100,0.25,light rain,2.06,0.0
111,Umm Kaddadah,SD,2020-04-18 01:23:47,13.6,26.69,74.88,16,10,12.84,clear sky,0.0,0.0
112,Ha Giang,VN,2020-04-18 01:24:27,22.83,104.98,75.45,80,100,3.02,light rain,0.2,0.0
113,Geraldton,AU,2020-04-18 01:22:49,-28.77,114.6,77.0,61,40,8.05,scattered clouds,0.0,0.0
114,Bilma,NE,2020-04-18 01:24:27,18.69,12.92,79.41,14,0,4.09,clear sky,0.0,0.0
115,Kieta,PG,2020-04-18 01:24:28,-6.22,155.63,85.23,64,67,0.22,light rain,0.28,0.0
116,Hasaki,JP,2020-04-18 01:24:28,35.73,140.83,57.2,93,75,20.8,light intensity shower rain,0.0,0.0
117,La Ronge,CA,2020-04-18 01:23:33,55.1,-105.28,41.0,60,75,20.8,broken clouds,0.0,0.0
118,Sorong,ID,2020-04-18 01:22:23,-0.88,131.25,85.28,72,14,2.53,light rain,0.24,0.0
119,Praia Da Vitoria,PT,2020-04-18 01:24:29,38.73,-27.07,59.0,82,20,5.97,few clouds,0.0,0.0
120,Mehamn,NO,2020-04-18 01:24:29,71.04,27.85,35.26,93,100,23.17,light snow,0.0,0.93
121,Tual,ID,2020-04-18 01:24:29,-5.67,132.75,84.25,76,87,9.66,light rain,0.42,0.0
122,Bataipora,BR,2020-04-18 01:24:29,-22.3,-53.27,62.19,68,21,3.51,few clouds,0.0,0.0
123,Kenai,US,2020-04-18 01:24:29,60.55,-151.26,48.2,70,90,5.08,overcast clouds,0.0,0.0
124,Provideniya,RU,2020-04-18 01:24:30,64.38,-173.3,26.92,96,100,19.46,light snow,0.0,0.42
125,Chokurdakh,RU,2020-04-18 01:22:43,70.63,147.92,-5.76,90,18,4.09,few clouds,0.0,0.0
126,Scarborough,GB,2020-04-18 01:24:30,54.28,-0.4,42.01,74,2,3.0,clear sky,0.0,0.0
127,Itarema,BR,2020-04-18 01:24:30,-2.92,-39.92,76.89,86,55,5.37,light rain,1.22,0.0
128,Saint George,US,2020-04-18 01:21:59,37.1,-113.58,73.0,21,1,13.87,clear sky,0.0,0.0
129,Kalmar,SE,2020-04-18 01:24:31,56.66,16.36,41.0,64,42,6.93,scattered clouds,0.0,0.0
130,Port Alfred,ZA,2020-04-18 01:24:31,-33.59,26.89,64.0,94,17,4.0,few clouds,0.0,0.0
131,Jumla,NP,2020-04-18 01:24:31,29.27,82.18,46.98,31,81,2.06,light rain,0.29,0.0
132,Kongolo,CD,2020-04-18 01:24:31,-5.38,27.0,69.73,82,100,0.96,overcast clouds,0.0,0.0
133,Ribeira Grande,PT,2020-04-18 01:24:32,38.52,-28.7,59.92,72,45,10.4,scattered clouds,0.0,0.0
134,Rolla,US,2020-04-18 01:22:36,37.95,-91.77,39.99,64,90,9.17,overcast clouds,0.0,0.0
135,Antofagasta,CL,2020-04-18 01:21:04,-23.65,-70.4,62.6,82,75,8.05,broken clouds,0.0,0.0
136,Bonavista,CA,2020-04-18 01:24:32,48.65,-53.11,30.99,66,83,5.99,light snow,0.0,0.36
137,Dikson,RU,2020-04-18 01:24:32,73.51,80.55,23.04,96,49,9.86,scattered clouds,0.0,0.0
138,Harper,LR,2020-04-18 01:24:33,4.38,-7.72,81.54,87,99,10.63,overcast clouds,0.0,0.0
139,Airai,TL,2020-04-18 01:24:33,-8.93,125.41,67.14,64,36,3.36,scattered clouds,0.0,0.0
140,North Bend,US,2020-04-18 01:24:33,43.41,-124.22,61.0,81,1,14.99,clear sky,0.0,0.0
141,Lingao,CN,2020-04-18 01:24:33,19.91,109.69,74.89,87,100,4.9,overcast clouds,0.0,0.0
142,Verkhnevilyuysk,RU,2020-04-18 01:24:34,63.45,120.32,10.0,89,36,6.76,scattered clouds,0.0,0.0
143,Skjervoy,NO,2020-04-18 01:24:34,70.03,20.97,36.05,80,100,22.28,light snow,0.0,0.63
144,Hilo,US,2020-04-18 01:24:34,19.73,-155.09,80.6,57,40,10.29,scattered clouds,0.0,0.0
145,Batagay-Alyta,RU,2020-04-18 01:23:10,67.8,130.41,-0.45,78,58,11.3,broken clouds,0.0,0.0
146,Paamiut,GL,2020-04-18 01:24:35,61.99,-49.67,26.24,92,96,8.59,light snow,0.0,0.37
147,Fortuna,US,2020-04-18 01:24:35,40.6,-124.16,63.0,76,20,11.41,few clouds,0.0,0.0
148,Kijang,KR,2020-04-18 01:22:24,35.24,129.21,59.0,58,40,11.41,scattered clouds,0.0,0.0
149,Mackay,AU,2020-04-18 01:24:35,-21.15,149.2,86.0,74,29,9.17,scattered clouds,0.0,0.0
150,Katobu,ID,2020-04-18 01:24:35,-4.94,122.53,82.51,77,3,3.71,clear sky,0.0,0.0
151,Fort-Shevchenko,KZ,2020-04-18 01:24:36,44.51,50.26,49.57,69,95,14.07,overcast clouds,0.0,0.0
152,Sola,VU,2020-04-18 01:24:36,-13.88,167.55,84.2,79,88,11.05,light rain,0.2,0.0
153,Arkhangelsk,RU,2020-04-18 01:24:36,64.54,40.54,32.0,97,90,3.98,overcast clouds,0.0,0.0
154,Lafiagi,NG,2020-04-18 01:24:36,8.87,5.42,84.61,65,99,9.15,overcast clouds,0.0,0.0
155,Kamenka,RU,2020-04-18 01:24:37,51.32,42.77,32.0,85,54,9.75,broken clouds,0.0,0.0
156,Frutal,BR,2020-04-18 01:24:37,-20.02,-48.94,71.26,70,91,6.2,overcast clouds,0.0,0.0
157,Los Altos Hills,US,2020-04-18 01:24:37,37.38,-122.14,63.0,59,75,16.11,broken clouds,0.0,0.0
158,Inhambane,MZ,2020-04-18 01:24:37,-23.86,35.38,75.18,82,17,8.77,few clouds,0.0,0.0
159,Londoko,RU,2020-04-18 01:24:38,49.03,131.98,56.79,31,2,2.13,clear sky,0.0,0.0
160,Lloydminster,CA,2020-04-18 01:24:38,53.28,-110.0,41.0,75,75,12.75,broken clouds,0.0,0.0
161,Chakulia,IN,2020-04-18 01:24:38,22.48,86.72,78.8,78,75,2.71,haze,0.0,0.0
162,Aksarka,RU,2020-04-18 01:24:38,66.56,67.8,33.76,95,100,9.48,overcast clouds,0.0,0.0
163,Mayor Pablo Lagerenza,PY,2020-04-18 01:24:39,-19.93,-60.77,68.43,41,42,5.23,scattered clouds,0.0,0.0
164,Kambove,CD,2020-04-18 01:22:06,-10.88,26.6,61.79,65,96,5.97,overcast clouds,0.0,0.0
165,Baghdad,IQ,2020-04-18 01:24:02,33.34,44.4,71.6,37,73,4.7,broken clouds,0.0,0.0
166,Ambovombe,MG,2020-04-18 01:24:39,-25.17,46.08,71.1,79,0,8.5,clear sky,0.0,0.0
167,Klyuchi,RU,2020-04-18 01:24:39,52.27,79.17,47.26,65,0,4.45,clear sky,0.0,0.0
168,Tambura,SS,2020-04-18 01:24:40,5.6,27.47,75.25,56,86,4.97,overcast clouds,0.0,0.0
169,Caceres,ES,2020-04-18 01:24:40,39.52,-6.37,51.01,91,99,0.56,overcast clouds,0.0,0.0
170,Changping,CN,2020-04-18 01:24:40,40.22,116.22,64.99,36,84,4.47,broken clouds,0.0,0.0
171,Barrow,US,2020-04-18 01:24:32,71.29,-156.79,10.4,85,90,17.22,light snow,0.0,0.0
172,Bernalillo,US,2020-04-18 01:20:58,35.05,-106.67,69.01,14,75,11.41,broken clouds,0.0,0.0
173,Mayo,US,2020-04-18 01:24:41,38.89,-76.51,54.0,62,75,9.17,broken clouds,0.0,0.0
174,Prince Rupert,CA,2020-04-18 01:24:41,54.32,-130.32,55.4,66,1,10.29,clear sky,0.0,0.0
175,Pevek,RU,2020-04-18 01:24:41,69.7,170.31,7.27,92,23,8.95,few clouds,0.0,0.0
176,New Norfolk,AU,2020-04-18 01:24:41,-42.78,147.06,55.99,78,63,1.99,broken clouds,0.0,0.0
177,Namibe,AO,2020-04-18 01:24:42,-15.2,12.15,74.03,69,25,5.12,light rain,0.85,0.0
178,Wanaka,NZ,2020-04-18 01:24:41,-44.7,169.15,52.61,49,76,8.59,light rain,0.38,0.0
179,Upernavik,GL,2020-04-18 01:24:42,72.79,-56.15,21.51,89,25,4.34,scattered clouds,0.0,0.0
180,Hay River,CA,2020-04-18 01:24:42,60.82,-115.8,33.8,74,75,4.7,broken clouds,0.0,0.0
181,Coquimbo,CL,2020-04-18 01:24:42,-29.95,-71.34,57.2,93,0,4.7,clear sky,0.0,0.0
182,Menongue,AO,2020-04-18 01:24:43,-14.66,17.69,64.13,51,58,4.45,broken clouds,0.0,0.0
183,Banda Aceh,ID,2020-04-18 01:24:43,5.56,95.32,79.25,80,88,2.8,overcast clouds,0.0,0.0
184,Opuwo,NA,2020-04-18 01:21:08,-18.06,13.84,72.52,31,80,1.92,broken clouds,0.0,0.0
185,Rio Verde De Mato Grosso,BR,2020-04-18 01:24:43,-18.92,-54.84,69.33,68,7,6.15,clear sky,0.0,0.0
186,Chardara,KZ,2020-04-18 01:24:44,41.25,67.97,55.17,54,0,3.49,clear sky,0.0,0.0
187,Maragogi,BR,2020-04-18 01:24:44,-9.01,-35.22,80.4,80,7,4.99,clear sky,0.0,0.0
188,Arboletes,CO,2020-04-18 01:24:44,8.85,-76.43,80.55,82,13,8.41,few clouds,0.0,0.0
189,Portoferraio,IT,2020-04-18 01:24:44,42.81,10.31,57.99,98,45,3.0,scattered clouds,0.0,0.0
190,Meulaboh,ID,2020-04-18 01:24:45,4.14,96.13,77.7,85,99,5.35,overcast clouds,0.0,0.0
191,Lavrentiya,RU,2020-04-18 01:22:49,65.58,-171.0,26.42,96,99,11.12,light snow,0.0,0.41
192,Berlevag,NO,2020-04-18 01:24:45,70.86,29.09,34.93,93,100,25.93,light snow,0.0,1.05
193,Erdenet,MN,2020-04-18 01:24:45,49.03,104.08,38.89,49,95,2.59,overcast clouds,0.0,0.0
194,Ankang,CN,2020-04-18 01:24:45,32.68,109.02,52.41,72,100,4.52,moderate rain,4.08,0.0
195,Cherskiy,RU,2020-04-18 01:24:46,68.75,161.3,7.34,90,17,7.02,few clouds,0.0,0.0
196,Zhigansk,RU,2020-04-18 01:23:53,66.77,123.37,-4.0,88,3,15.86,clear sky,0.0,0.0
197,Saint-Georges,GD,2020-04-18 01:24:46,12.06,-61.75,80.6,78,20,5.82,few clouds,0.0,0.0
198,Baracoa,CU,2020-04-18 01:24:46,20.35,-74.5,79.68,75,0,9.57,clear sky,0.0,0.0
199,Te Anau,NZ,2020-04-18 01:24:47,-45.42,167.72,50.41,59,75,11.23,light rain,0.71,0.0
200,Hamilton,US,2020-04-18 01:21:19,39.18,-84.53,48.99,93,90,17.22,moderate rain,0.0,0.0
201,Valparaiso,CL,2020-04-18 01:21:48,-33.04,-71.63,57.2,87,50,5.39,scattered clouds,0.0,0.0
202,Aripuana,BR,2020-04-18 01:24:48,-9.17,-60.63,73.96,92,47,1.12,light rain,0.81,0.0
203,Navalmoral De La Mata,ES,2020-04-18 01:24:49,39.89,-5.54,53.01,93,97,2.19,overcast clouds,0.0,0.0
204,Esperance,AU,2020-04-18 01:24:48,-33.87,121.9,71.6,46,60,19.46,broken clouds,0.0,0.0
205,Port-Gentil,GA,2020-04-18 01:24:49,-0.72,8.78,80.58,83,100,10.27,overcast clouds,0.0,0.0
206,The Pas,CA,2020-04-18 01:24:50,53.83,-101.25,39.2,89,90,9.17,overcast clouds,0.0,0.0
207,Lagoa,PT,2020-04-18 01:24:50,39.05,-27.98,60.04,69,31,10.4,scattered clouds,0.0,0.0
208,Labuhan,ID,2020-04-18 01:24:50,-6.88,112.21,81.18,82,68,3.47,broken clouds,0.0,0.0
209,Bud,US,2020-04-18 01:24:50,39.45,-86.18,39.2,86,90,16.11,overcast clouds,0.0,0.0
210,Kinablangan,PH,2020-04-18 01:24:51,7.69,126.55,82.65,72,67,4.92,light rain,1.77,0.0
211,College,US,2020-04-18 01:24:39,64.86,-147.8,46.99,65,90,1.63,light rain,0.0,0.0
212,Alofi,NU,2020-04-18 01:24:51,-19.06,-169.92,84.2,70,4,12.75,light rain,0.17,0.0
213,Quatre Cocos,MU,2020-04-18 01:24:51,-20.21,57.76,75.2,78,40,3.36,scattered clouds,0.0,0.0
214,Laguna,US,2020-04-18 01:24:52,38.42,-121.42,62.6,59,1,16.11,clear sky,0.0,0.0
215,Ambanja,MG,2020-04-18 01:24:52,-13.68,48.45,74.35,80,74,3.94,light rain,0.23,0.0
216,Gimli,CA,2020-04-18 01:23:05,50.63,-96.99,50.0,35,89,3.0,overcast clouds,0.0,0.0
217,Eureka,US,2020-04-18 01:24:53,40.8,-124.16,55.99,79,9,7.0,clear sky,0.0,0.0
218,Lasa,IT,2020-04-18 01:24:53,46.62,10.7,48.0,53,98,1.25,overcast clouds,0.0,0.0
219,Tacna,PE,2020-04-18 01:24:53,-18.01,-70.25,68.0,77,40,6.93,scattered clouds,0.0,0.0
220,Zonguldak,TR,2020-04-18 01:24:54,41.25,31.83,49.3,64,100,2.73,overcast clouds,0.0,0.0
221,Nieuw Amsterdam,SR,2020-04-18 01:24:54,5.88,-55.08,80.01,83,64,4.7,broken clouds,0.0,0.0
222,Souillac,MU,2020-04-18 01:24:54,-20.52,57.52,75.2,78,40,3.36,scattered clouds,0.0,0.0
223,Arlit,NE,2020-04-18 01:22:31,18.74,7.39,84.78,11,0,7.81,clear sky,0.0,0.0
224,Touros,BR,2020-04-18 01:24:55,-5.2,-35.46,77.0,94,20,10.63,few clouds,0.0,0.0
225,Westport,US,2020-04-18 01:24:55,41.14,-73.36,42.8,75,90,4.7,light rain,0.0,0.0
226,Atikokan,CA,2020-04-18 01:24:55,48.76,-91.62,39.27,57,5,6.17,clear sky,0.0,0.0
227,Saint Anthony,US,2020-04-18 01:24:55,45.02,-93.22,46.99,30,1,8.05,clear sky,0.0,0.0
228,Vostok,RU,2020-04-18 01:24:56,46.49,135.88,46.72,48,99,2.33,overcast clouds,0.0,0.0
229,Asau,RO,2020-04-18 01:24:56,46.43,26.4,50.0,53,44,9.17,scattered clouds,0.0,0.0
230,Ust-Ishim,RU,2020-04-18 01:24:56,57.69,71.17,49.42,60,99,10.58,overcast clouds,0.0,0.0
231,Ilulissat,GL,2020-04-18 01:24:56,69.22,-51.1,26.6,79,98,4.7,overcast clouds,0.0,0.0
232,Ibra,OM,2020-04-18 01:24:56,22.69,58.53,76.28,50,0,2.95,clear sky,0.0,0.0
233,Ayan,RU,2020-04-18 01:24:57,56.45,138.17,22.57,81,3,11.21,clear sky,0.0,0.0
234,Nha Trang,VN,2020-04-18 01:23:26,12.25,109.18,84.2,89,40,2.24,scattered clouds,0.0,0.0
235,Luderitz,NA,2020-04-18 01:24:38,-26.65,15.16,53.6,93,1,2.24,clear sky,0.0,0.0
236,Bhabua,IN,2020-04-18 01:24:57,25.05,83.62,80.17,28,18,1.28,few clouds,0.0,0.0
237,Cabatuan,PH,2020-04-18 01:24:58,10.88,122.49,83.88,69,16,8.99,few clouds,0.0,0.0
238,Cabo San Lucas,MX,2020-04-18 01:24:58,22.89,-109.91,80.01,77,5,26.4,clear sky,0.0,0.0
239,Nouakchott,MR,2020-04-18 01:24:00,18.09,-15.98,66.2,82,32,16.11,scattered clouds,0.0,0.0
240,Porto Seguro,BR,2020-04-18 01:22:42,-16.45,-39.06,73.4,94,75,3.36,moderate rain,0.0,0.0
241,Port Hedland,AU,2020-04-18 01:24:59,-20.32,118.57,89.6,46,99,3.36,overcast clouds,0.0,0.0
242,Sahiwal,PK,2020-04-18 01:24:59,31.97,72.33,64.35,74,44,4.9,scattered clouds,0.0,0.0
243,Kruisfontein,ZA,2020-04-18 01:24:59,-34.0,24.73,56.88,84,81,1.79,broken clouds,0.0,0.0
244,Aguililla,MX,2020-04-18 01:24:59,18.73,-102.73,88.11,19,76,4.29,broken clouds,0.0,0.0
245,Padang,ID,2020-04-18 01:25:00,-0.95,100.35,78.46,76,73,4.56,light rain,1.18,0.0
246,Kichera,RU,2020-04-18 01:25:00,55.94,110.1,36.28,68,100,4.29,snow,0.0,2.19
247,Vila Franca Do Campo,PT,2020-04-18 01:24:05,37.72,-25.43,53.6,81,20,2.24,few clouds,0.0,0.0
248,Yar-Sale,RU,2020-04-18 01:25:01,66.83,70.83,35.73,97,100,16.62,overcast clouds,0.0,0.0
249,Jiquilpan,MX,2020-04-18 01:25:01,19.78,-103.78,83.32,19,79,9.53,broken clouds,0.0,0.0
250,Elko,US,2020-04-18 01:25:01,41.0,-115.5,55.99,20,68,4.0,broken clouds,0.0,0.0
251,Shache,CN,2020-04-18 01:25:01,38.42,77.24,52.9,60,100,5.93,moderate rain,5.69,0.0
252,Lac Du Bonnet,CA,2020-04-18 01:25:02,50.25,-96.06,50.0,36,94,5.99,overcast clouds,0.0,0.0
253,Dibai,IN,2020-04-18 01:25:02,28.22,78.25,77.32,32,12,6.58,few clouds,0.0,0.0
254,Nanortalik,GL,2020-04-18 01:25:02,60.14,-45.24,29.12,90,100,16.46,light snow,0.0,0.31
255,San Rafael Del Sur,NI,2020-04-18 01:25:02,11.85,-86.44,89.6,49,20,11.41,few clouds,0.0,0.0
256,Bull Savanna,JM,2020-04-18 01:25:02,17.89,-77.59,76.35,76,60,5.82,light rain,0.34,0.0
257,Lompoc,US,2020-04-18 01:23:25,34.64,-120.46,57.2,76,90,6.93,overcast clouds,0.0,0.0
258,Chuy,UY,2020-04-18 01:25:03,-33.7,-53.46,61.61,81,23,5.68,few clouds,0.0,0.0
259,Ilhabela,BR,2020-04-18 01:25:03,-23.78,-45.36,71.06,67,95,5.46,overcast clouds,0.0,0.0
260,Nome,US,2020-04-18 01:25:03,64.5,-165.41,36.0,100,90,13.87,light rain,0.0,0.0
261,Antalya,TR,2020-04-18 01:25:03,36.77,30.72,55.4,66,2,5.82,clear sky,0.0,0.0
262,Vaitape,PF,2020-04-18 01:25:04,-16.52,-151.75,83.64,68,100,7.54,overcast clouds,0.0,0.0
263,Tabas,IR,2020-04-18 01:25:04,33.6,56.92,68.0,37,72,4.7,broken clouds,0.0,0.0
264,Rio De Janeiro,BR,2020-04-18 01:22:40,-22.9,-43.21,71.6,88,90,5.82,overcast clouds,0.0,0.0
265,Ahipara,NZ,2020-04-18 01:23:03,-35.17,173.17,66.33,89,42,15.48,light rain,1.03,0.0
266,San Quintin,MX,2020-04-18 01:25:05,30.48,-115.95,62.19,66,16,13.56,few clouds,0.0,0.0
267,Cessnock,AU,2020-04-18 01:21:28,-32.83,151.35,70.0,43,83,3.98,broken clouds,0.0,0.0
268,Kintinku,TZ,2020-04-18 01:25:05,-5.88,35.23,68.0,88,20,11.41,few clouds,0.0,0.0
269,Pachino,IT,2020-04-18 01:25:05,36.72,15.09,57.99,100,34,1.12,fog,0.0,0.0
270,Oussouye,SN,2020-04-18 01:25:06,12.48,-16.55,78.8,54,0,4.7,clear sky,0.0,0.0
271,Teguldet,RU,2020-04-18 01:25:06,57.31,88.17,32.65,89,0,3.87,clear sky,0.0,0.0
272,San Ramon De La Nueva Oran,AR,2020-04-18 01:25:06,-23.13,-64.33,64.99,93,29,2.17,scattered clouds,0.0,0.0
273,Soure,BR,2020-04-18 01:25:06,-0.72,-48.52,77.22,87,100,6.11,overcast clouds,0.0,0.0
274,Araripe,BR,2020-04-18 01:23:09,-7.21,-40.05,68.94,80,83,2.06,light rain,1.36,0.0
275,Cauquenes,CL,2020-04-18 01:25:07,-35.97,-72.32,63.66,76,78,5.41,broken clouds,0.0,0.0
276,Xifeng,CN,2020-04-18 01:25:07,42.74,124.72,54.05,39,56,4.81,broken clouds,0.0,0.0
277,Yeppoon,AU,2020-04-18 01:25:07,-23.13,150.73,87.8,45,31,9.17,scattered clouds,0.0,0.0
278,La Asuncion,VE,2020-04-18 01:25:08,11.03,-63.86,80.6,78,98,17.22,overcast clouds,0.0,0.0
279,Japura,ID,2020-04-18 01:25:08,-0.32,102.35,74.88,92,67,1.28,light rain,0.18,0.0
280,Sao Felix Do Xingu,BR,2020-04-18 01:25:08,-6.64,-51.99,71.17,92,100,1.48,light rain,0.24,0.0
281,Mar Del Plata,AR,2020-04-18 01:20:17,-38.0,-57.56,63.0,77,42,10.29,scattered clouds,0.0,0.0
282,Yumen,CN,2020-04-18 01:25:08,40.28,97.2,47.07,31,57,3.65,broken clouds,0.0,0.0
283,Sibut,CF,2020-04-18 01:25:09,5.72,19.07,78.22,61,91,6.04,overcast clouds,0.0,0.0
284,Havelock,US,2020-04-18 01:20:22,34.88,-76.9,66.99,59,1,13.87,clear sky,0.0,0.0
285,Vila,PT,2020-04-18 01:25:09,42.03,-8.16,51.8,100,90,6.93,fog,0.0,0.0
286,Talkha,EG,2020-04-18 01:25:09,31.05,31.38,57.22,90,0,5.46,clear sky,0.0,0.0
287,Cidreira,BR,2020-04-18 01:25:10,-30.18,-50.21,65.32,85,10,6.11,clear sky,0.0,0.0
288,Srednekolymsk,RU,2020-04-18 01:25:10,67.45,153.68,0.99,92,100,11.14,overcast clouds,0.0,0.0
289,The Valley,AI,2020-04-18 01:25:10,18.22,-63.06,80.6,69,20,8.05,few clouds,0.0,0.0
290,Kabanjahe,ID,2020-04-18 01:25:10,3.1,98.49,80.6,88,20,3.36,few clouds,0.0,0.0
291,Sobral,BR,2020-04-18 01:25:11,-3.69,-40.35,74.3,92,97,1.79,light rain,0.67,0.0
292,Thinadhoo,MV,2020-04-18 01:25:11,0.53,72.93,84.45,75,20,9.15,few clouds,0.0,0.0
293,Lamar,US,2020-04-18 01:24:42,33.67,-95.58,50.0,76,1,9.17,clear sky,0.0,0.0
294,Urumqi,CN,2020-04-18 01:25:11,43.8,87.6,55.4,62,84,4.47,broken clouds,0.0,0.0
295,Nsoko,SZ,2020-04-18 01:25:07,-27.03,31.95,68.0,94,2,0.94,clear sky,0.0,0.0
296,Ntungamo,UG,2020-04-18 01:25:12,-0.88,29.65,65.1,62,100,1.25,light rain,0.27,0.0
297,Qui Nhon,VN,2020-04-18 01:25:12,13.77,109.23,79.65,83,100,2.75,overcast clouds,0.0,0.0
298,Gravdal,NO,2020-04-18 01:25:12,68.12,13.5,37.63,96,100,13.22,light rain,0.88,0.0
299,Iquique,CL,2020-04-18 01:25:12,-20.22,-70.14,66.2,77,17,9.17,few clouds,0.0,0.0
300,Albion,US,2020-04-18 01:25:12,42.24,-84.75,33.8,86,90,3.36,overcast clouds,0.0,0.0
301,Tumarbong,PH,2020-04-18 01:25:13,10.38,119.46,86.04,69,44,8.14,light rain,0.29,0.0
302,Coahuayana,MX,2020-04-18 01:25:13,18.73,-103.68,86.2,37,49,6.24,scattered clouds,0.0,0.0
303,Tucano,BR,2020-04-18 01:25:13,-10.96,-38.79,74.17,86,76,5.12,light rain,0.19,0.0
304,Jinxiang,CN,2020-04-18 01:25:13,22.86,115.7,77.0,75,99,2.48,overcast clouds,0.0,0.0
305,Newberry,US,2020-04-18 01:25:13,34.27,-81.62,59.0,62,1,3.36,clear sky,0.0,0.0
306,Lienz,AT,2020-04-18 01:25:14,46.83,12.77,39.99,80,54,3.47,broken clouds,0.0,0.0
307,Erzin,TR,2020-04-18 01:21:40,36.96,36.2,63.0,100,0,1.12,clear sky,0.0,0.0
308,Lodwar,KE,2020-04-18 01:25:14,3.12,35.6,85.53,46,66,13.2,light rain,0.26,0.0
309,Weligama,LK,2020-04-18 01:25:14,5.97,80.42,78.04,88,19,5.3,light rain,0.5,0.0
310,Husavik,IS,2020-04-18 01:25:15,66.04,-17.34,46.4,75,26,23.04,scattered clouds,0.0,0.0
311,Leningradskiy,RU,2020-04-18 01:25:15,69.38,178.42,10.69,93,97,11.92,overcast clouds,0.0,0.0
312,Atchison,US,2020-04-18 01:25:15,39.56,-95.12,42.8,60,1,5.82,clear sky,0.0,0.0
313,Rjukan,NO,2020-04-18 01:22:05,59.88,8.59,32.0,78,0,7.0,clear sky,0.0,0.0
314,Ovsyanka,RU,2020-04-18 01:25:16,55.96,92.55,37.4,74,0,4.47,clear sky,0.0,0.0
315,Kudahuvadhoo,MV,2020-04-18 01:21:04,2.67,72.89,84.61,72,47,7.47,light rain,1.13,0.0
316,Gambela,ET,2020-04-18 01:25:16,8.25,34.58,81.05,38,43,1.99,scattered clouds,0.0,0.0
317,Poum,NC,2020-04-18 01:25:16,-20.23,164.02,78.76,75,96,9.62,overcast clouds,0.0,0.0
318,Plettenberg Bay,ZA,2020-04-18 01:24:50,-34.05,23.37,60.06,79,71,2.59,broken clouds,0.0,0.0
319,Norman Wells,CA,2020-04-18 01:25:17,65.28,-126.83,39.2,55,75,2.24,broken clouds,0.0,0.0
320,Port Blair,IN,2020-04-18 01:21:40,11.67,92.75,82.92,72,17,3.27,few clouds,0.0,0.0
321,Mecca,SA,2020-04-18 01:25:17,21.43,39.83,72.37,47,0,3.09,clear sky,0.0,0.0
322,Yellowknife,CA,2020-04-18 01:25:17,62.46,-114.35,28.0,58,75,9.17,broken clouds,0.0,0.0
323,Hobyo,SO,2020-04-18 01:25:18,5.35,48.53,83.91,71,63,9.01,light rain,0.5,0.0
324,Fairbanks,US,2020-04-18 01:20:53,64.84,-147.72,48.99,65,75,1.5,light rain,0.0,0.0
325,Samarai,PG,2020-04-18 01:25:18,-10.62,150.67,84.61,69,78,5.59,broken clouds,0.0,0.0
326,Ugoofaaru,MV,2020-04-18 01:21:06,5.67,73.0,85.35,74,17,11.03,light rain,0.25,0.0
327,Hanna,CA,2020-04-18 01:25:19,51.63,-111.9,37.74,72,100,14.23,light rain,0.17,0.0
328,Loandjili,CG,2020-04-18 01:25:19,-4.76,11.86,78.42,88,98,4.56,light rain,0.21,0.0
329,Beitbridge,ZW,2020-04-18 01:25:19,-22.22,30.0,69.84,70,1,14.25,clear sky,0.0,0.0
330,Ahuimanu,US,2020-04-18 01:25:20,21.44,-157.84,84.2,48,20,11.41,few clouds,0.0,0.0
331,Kupang,ID,2020-04-18 01:25:15,-10.17,123.58,87.8,70,20,10.29,few clouds,0.0,0.0
332,Ewa Beach,US,2020-04-18 01:25:20,21.32,-158.01,84.2,45,1,6.93,clear sky,0.0,0.0
333,Owo,NG,2020-04-18 01:25:20,7.2,5.59,75.49,86,57,6.02,broken clouds,0.0,0.0
334,Bay City,US,2020-04-18 01:22:44,43.59,-83.89,37.99,74,75,9.17,broken clouds,0.0,0.0
335,Rocha,UY,2020-04-18 01:25:21,-34.48,-54.33,57.96,90,19,3.96,few clouds,0.0,0.0
336,Dargaville,NZ,2020-04-18 01:25:21,-35.93,173.88,66.81,85,47,11.59,light rain,0.98,0.0
337,Wuzhou,CN,2020-04-18 01:25:21,23.48,111.32,72.68,78,95,0.83,overcast clouds,0.0,0.0
338,Sarakhs,IR,2020-04-18 01:25:22,36.54,61.16,60.98,47,90,6.62,overcast clouds,0.0,0.0
339,Spas-Klepiki,RU,2020-04-18 01:25:22,55.13,40.18,28.0,86,15,1.99,few clouds,0.0,0.0
340,Kautokeino,NO,2020-04-18 01:25:22,69.01,23.04,22.66,90,10,13.47,clear sky,0.0,0.0
341,Waihi Beach,NZ,2020-04-18 01:25:22,-37.4,175.93,72.0,71,55,8.01,light rain,0.0,0.0
342,Tabou,CI,2020-04-18 01:25:23,4.42,-7.35,80.87,88,99,10.02,overcast clouds,0.0,0.0
343,Rafaela,AR,2020-04-18 01:25:23,-31.25,-61.49,63.0,44,0,1.99,clear sky,0.0,0.0
344,Khani,GE,2020-04-18 01:25:23,41.96,42.96,41.0,100,90,3.36,fog,0.0,0.0
345,Vila Velha,BR,2020-04-18 01:25:24,-20.33,-40.29,75.2,78,90,13.87,overcast clouds,0.0,0.0
346,Katghora,IN,2020-04-18 01:25:24,22.5,82.55,78.91,19,43,5.32,scattered clouds,0.0,0.0
347,Leh,IN,2020-04-18 01:21:43,34.17,77.58,32.22,21,94,3.11,light snow,0.0,0.39
348,Soloneshnoye,RU,2020-04-18 01:25:25,51.65,84.32,39.96,61,0,3.62,clear sky,0.0,0.0
349,Peleduy,RU,2020-04-18 01:25:25,59.63,112.74,20.39,86,51,13.94,broken clouds,0.0,0.0
350,Ossora,RU,2020-04-18 01:25:25,59.24,163.07,26.42,90,0,8.9,clear sky,0.0,0.0
351,Honefoss,NO,2020-04-18 01:21:45,60.17,10.26,32.0,57,2,1.28,clear sky,0.0,0.0
352,Elk Plain,US,2020-04-18 01:25:26,47.05,-122.4,69.8,29,20,8.05,few clouds,0.0,0.0
353,Suoyarvi,RU,2020-04-18 01:25:26,62.08,32.35,29.61,96,14,8.72,few clouds,0.0,0.0
354,Lagunas,PE,2020-04-18 01:23:04,-5.23,-75.68,73.18,74,89,2.15,overcast clouds,0.0,0.0
355,Le Port,RE,2020-04-18 01:25:26,-20.94,55.29,75.2,73,27,13.87,scattered clouds,0.0,0.0
356,Klaksvik,FO,2020-04-18 01:25:26,62.23,-6.59,39.2,93,1,6.93,clear sky,0.0,0.0
357,Arawa,PG,2020-04-18 01:25:27,-6.21,155.54,85.84,63,71,0.27,light rain,0.34,0.0
358,Znamenskoye,RU,2020-04-18 01:22:53,57.13,73.83,46.51,70,98,11.68,overcast clouds,0.0,0.0
359,Gizo,SB,2020-04-18 01:25:05,-8.1,156.84,85.41,66,93,3.76,light rain,1.59,0.0
360,Huaicheng,CN,2020-04-18 01:25:27,23.91,112.19,73.85,73,97,2.1,overcast clouds,0.0,0.0
361,Port Lincoln,AU,2020-04-18 01:24:34,-34.73,135.87,63.01,67,88,10.31,light rain,0.68,0.0
362,Haines Junction,CA,2020-04-18 01:25:28,60.75,-137.51,43.16,58,99,2.73,overcast clouds,0.0,0.0
363,Sakaiminato,JP,2020-04-18 01:25:28,35.55,133.23,59.0,62,75,20.8,broken clouds,0.0,0.0
364,Pisco,PE,2020-04-18 01:25:28,-13.7,-76.22,70.0,77,25,13.87,scattered clouds,0.0,0.0
365,Gambo,CF,2020-04-18 01:25:29,4.65,22.26,73.74,75,87,5.77,light rain,0.91,0.0
366,Phalodi,IN,2020-04-18 01:25:29,27.13,72.37,81.25,30,10,9.37,clear sky,0.0,0.0
367,Sangar,RU,2020-04-18 01:25:29,63.92,127.47,12.65,76,0,0.25,clear sky,0.0,0.0
368,Pandan Niog,PH,2020-04-18 01:23:06,6.23,120.56,83.55,71,52,1.1,light rain,1.14,0.0
369,Lilongwe,MW,2020-04-18 01:25:30,-13.97,33.79,62.89,68,40,5.03,scattered clouds,0.0,0.0
370,Macomer,IT,2020-04-18 01:25:30,40.26,8.77,60.8,93,95,10.29,overcast clouds,0.0,0.0
371,Kendari,ID,2020-04-18 01:25:30,-3.94,122.5,83.68,75,18,2.19,few clouds,0.0,0.0
372,Carmen,MX,2020-04-18 01:21:33,18.63,-91.83,86.0,79,75,6.93,broken clouds,0.0,0.0
373,Betioky,MG,2020-04-18 01:25:31,-23.72,44.38,70.38,70,0,4.56,clear sky,0.0,0.0
374,Namatanai,PG,2020-04-18 01:24:46,-3.67,152.43,82.62,72,99,4.27,overcast clouds,0.0,0.0
375,Spencer,US,2020-04-18 01:25:31,43.14,-95.14,44.6,45,1,8.05,clear sky,0.0,0.0
376,Bengkulu,ID,2020-04-18 01:25:31,-3.8,102.27,77.99,83,74,5.35,light rain,1.76,0.0
377,Kibala,TD,2020-04-18 01:25:32,9.11,18.35,87.8,38,3,3.36,clear sky,0.0,0.0
378,Nikolskiy,RU,2020-04-18 01:25:32,60.92,34.06,30.34,97,47,6.49,scattered clouds,0.0,0.0
379,Aykhal,RU,2020-04-18 01:25:32,66.0,111.5,5.0,65,53,4.47,broken clouds,0.0,0.0
380,Huarmey,PE,2020-04-18 01:25:32,-10.07,-78.15,74.01,73,65,7.4,broken clouds,0.0,0.0
381,Ornskoldsvik,SE,2020-04-18 01:25:32,63.29,18.72,32.0,92,0,12.75,clear sky,0.0,0.0
382,Marawi,PH,2020-04-18 01:25:33,8.0,124.29,78.04,49,29,1.66,scattered clouds,0.0,0.0
383,Kahului,US,2020-04-18 01:23:43,20.89,-156.47,82.4,54,40,19.46,scattered clouds,0.0,0.0
384,Pacific Grove,US,2020-04-18 01:25:33,36.62,-121.92,57.0,60,100,10.11,overcast clouds,0.0,0.0
385,Parakou,BJ,2020-04-18 01:25:34,9.34,2.63,81.09,67,70,11.21,broken clouds,0.0,0.0
386,Acarau,BR,2020-04-18 01:25:35,-2.89,-40.12,76.32,88,72,3.94,light rain,1.7,0.0
387,Beloha,MG,2020-04-18 01:25:35,-25.17,45.05,71.24,67,0,2.8,clear sky,0.0,0.0
388,Magadan,RU,2020-04-18 01:25:36,59.57,150.8,19.09,96,100,16.8,snow,0.0,1.73
389,Aswan,EG,2020-04-18 01:25:36,24.09,32.91,68.0,40,48,25.28,scattered clouds,0.0,0.0
390,Mahajanga,MG,2020-04-18 01:25:36,-15.72,46.32,69.8,88,20,4.7,few clouds,0.0,0.0
391,Bintulu,MY,2020-04-18 01:25:36,3.17,113.03,84.2,79,75,6.93,broken clouds,0.0,0.0
392,Viedma,AR,2020-04-18 01:25:37,-40.81,-63.0,75.92,35,64,16.78,broken clouds,0.0,0.0
393,Balod,IN,2020-04-18 01:25:37,20.73,81.2,80.94,30,17,5.79,few clouds,0.0,0.0
394,Tecolutla,MX,2020-04-18 01:25:37,20.48,-97.02,84.2,74,75,6.93,broken clouds,0.0,0.0
395,Maldonado,UY,2020-04-18 01:25:37,-34.67,-54.92,61.0,100,20,6.93,few clouds,0.0,0.0
396,Turbiv,UA,2020-04-18 01:25:38,49.35,28.72,40.15,71,25,6.04,scattered clouds,0.0,0.0
397,Lander,US,2020-04-18 01:25:38,42.83,-108.73,48.99,36,1,4.7,clear sky,0.0,0.0
398,Sobolevo,RU,2020-04-18 01:25:38,54.43,31.9,32.18,87,14,11.41,few clouds,0.0,0.0
399,Gobabis,NA,2020-04-18 01:25:38,-22.45,18.97,60.8,77,0,24.16,clear sky,0.0,0.0
400,Nadvoitsy,RU,2020-04-18 01:25:38,63.87,34.32,31.69,93,95,12.46,overcast clouds,0.0,0.0
401,Ucluelet,CA,2020-04-18 01:25:39,48.93,-125.55,63.0,81,20,4.7,few clouds,0.0,0.0
402,Thyboron,DK,2020-04-18 01:25:39,56.7,8.21,35.01,84,0,7.11,clear sky,0.0,0.0
403,Chimbote,PE,2020-04-18 01:25:39,-9.09,-78.58,71.78,81,5,7.58,clear sky,0.0,0.0
404,Richards Bay,ZA,2020-04-18 01:25:39,-28.78,32.04,68.18,80,0,7.09,clear sky,0.0,0.0
405,Santa Maria,BR,2020-04-18 01:25:40,-29.68,-53.81,60.8,77,33,4.7,scattered clouds,0.0,0.0
406,Kavaratti,IN,2020-04-18 01:25:40,10.57,72.64,84.33,68,26,3.53,scattered clouds,0.0,0.0
407,Kaeo,NZ,2020-04-18 01:25:40,-35.1,173.78,68.0,87,56,5.99,light rain,0.81,0.0
408,Bani Walid,LY,2020-04-18 01:25:41,31.76,13.99,61.75,63,22,2.48,few clouds,0.0,0.0
409,Narsaq,GL,2020-04-18 01:24:48,60.92,-46.05,30.2,68,97,14.99,overcast clouds,0.0,0.0
410,Gamba,GA,2020-04-18 01:25:41,-2.65,10.0,79.41,88,100,10.29,light rain,0.11,0.0
411,Galle,LK,2020-04-18 01:25:40,6.04,80.22,79.7,85,31,7.02,light rain,0.4,0.0
412,Podyuga,RU,2020-04-18 01:25:42,61.09,40.86,28.58,97,100,4.74,overcast clouds,0.0,0.0
413,Camopi,GF,2020-04-18 01:25:42,3.17,-52.32,75.07,92,97,2.17,light rain,1.47,0.0
414,Moree,AU,2020-04-18 01:25:42,-29.47,149.85,68.0,45,100,9.17,overcast clouds,0.0,0.0
415,Nouadhibou,MR,2020-04-18 01:25:43,20.93,-17.03,64.4,88,14,12.75,few clouds,0.0,0.0
416,Pauini,BR,2020-04-18 01:25:43,-7.71,-66.98,72.93,90,20,1.63,light rain,0.37,0.0
417,Whitehorse,CA,2020-04-18 01:22:43,60.72,-135.05,53.6,32,75,3.36,broken clouds,0.0,0.0
418,Mogadishu,SO,2020-04-18 01:25:43,2.04,45.34,83.17,75,97,8.95,light rain,0.69,0.0
419,Rio Grande,BR,2020-04-18 01:22:21,-32.03,-52.1,53.01,94,2,8.9,clear sky,0.0,0.0
420,Lima,PE,2020-04-18 01:25:44,-12.04,-77.03,69.8,83,63,8.05,broken clouds,0.0,0.0
421,San Rafael,AR,2020-04-18 01:22:43,-34.62,-68.33,71.37,33,1,13.8,clear sky,0.0,0.0
422,Santa Cruz,BO,2020-04-18 01:25:45,-17.8,-63.17,77.0,41,40,9.17,scattered clouds,0.0,0.0
423,Veraval,IN,2020-04-18 01:25:45,20.9,70.37,79.27,57,2,11.59,clear sky,0.0,0.0
424,Causapscal,CA,2020-04-18 01:25:45,48.35,-67.23,23.9,90,65,5.84,broken clouds,0.0,0.0
425,Vanavara,RU,2020-04-18 01:25:46,60.34,102.28,22.39,92,34,8.03,scattered clouds,0.0,0.0
426,Putina,PE,2020-04-18 01:23:04,-15.47,-69.43,40.73,26,98,12.17,overcast clouds,0.0,0.0
427,Conil,FR,2020-04-18 01:25:46,44.97,3.72,41.34,70,100,4.74,overcast clouds,0.0,0.0
428,Marinette,US,2020-04-18 01:25:46,45.1,-87.63,42.8,35,1,3.36,clear sky,0.0,0.0
429,Komsomolskiy,UZ,2020-04-18 01:25:47,40.43,71.72,53.6,66,17,6.93,few clouds,0.0,0.0
430,Santa Rosa,PH,2020-04-18 01:22:39,14.31,121.11,87.01,66,75,8.05,broken clouds,0.0,0.0
431,Crossville,US,2020-04-18 01:25:47,35.95,-85.03,62.6,48,20,9.17,few clouds,0.0,0.0
432,Rawson,AR,2020-04-18 01:24:16,-43.3,-65.1,80.2,34,31,23.35,scattered clouds,0.0,0.0
433,Aguimes,ES,2020-04-18 01:25:47,27.91,-15.45,68.0,68,75,2.24,broken clouds,0.0,0.0
434,Deep River,CA,2020-04-18 01:25:48,46.1,-77.5,41.0,38,90,3.36,overcast clouds,0.0,0.0
435,Bereznik,RU,2020-04-18 01:25:48,62.86,42.71,27.68,98,74,3.83,broken clouds,0.0,0.0
436,Imeni Poliny Osipenko,RU,2020-04-18 01:25:48,52.42,136.49,33.66,81,60,12.44,light snow,0.0,0.21
437,Conceicao Do Araguaia,BR,2020-04-18 01:25:48,-8.26,-49.26,74.43,90,97,2.75,light rain,2.59,0.0
438,Sitka,US,2020-04-18 01:25:49,57.05,-135.33,51.8,76,75,4.7,broken clouds,0.0,0.0
439,La Rioja,ES,2020-04-18 01:25:49,42.25,-2.5,51.8,93,20,1.12,few clouds,0.0,0.0
440,Bria,CF,2020-04-18 01:25:49,6.54,21.99,73.08,41,98,1.23,overcast clouds,0.0,0.0
441,Tura,IN,2020-04-18 01:24:55,25.52,90.22,68.0,86,42,2.1,light rain,1.58,0.0
442,Hovd,MN,2020-04-18 01:25:49,48.01,91.64,39.51,46,32,1.3,scattered clouds,0.0,0.0
443,Sergeyevka,KZ,2020-04-18 01:25:50,53.88,67.42,47.46,72,75,8.28,light rain,0.6,0.0
444,Carauari,BR,2020-04-18 01:21:46,-4.88,-66.9,74.95,93,74,2.39,light rain,2.09,0.0
445,Trairi,BR,2020-04-18 01:25:50,-3.28,-39.27,78.87,82,54,5.48,light rain,0.16,0.0
446,Svetlyy,RU,2020-04-18 01:25:50,54.67,20.13,30.2,92,0,8.95,clear sky,0.0,0.0
447,Sehithwa,BW,2020-04-18 01:25:50,-20.47,22.72,75.65,32,47,2.3,scattered clouds,0.0,0.0
448,Bethel,US,2020-04-18 01:23:16,41.37,-73.41,37.99,86,90,5.03,light rain,0.0,0.0
449,Oranjestad,AW,2020-04-18 01:25:11,12.52,-70.03,80.6,78,20,19.46,few clouds,0.0,0.0
450,Wonthaggi,AU,2020-04-18 01:25:52,-38.6,145.59,55.0,94,99,5.01,light rain,0.36,0.0
451,Barrhead,GB,2020-04-18 01:25:52,55.8,-4.39,41.0,85,75,12.75,broken clouds,0.0,0.0
452,Topchanchi,IN,2020-04-18 01:25:52,23.9,86.2,76.64,59,36,3.49,scattered clouds,0.0,0.0
453,Tazovskiy,RU,2020-04-18 01:25:52,67.47,78.7,35.42,99,100,16.73,overcast clouds,0.0,0.0
454,Taoudenni,ML,2020-04-18 01:25:52,22.68,-3.98,91.24,20,7,7.23,clear sky,0.0,0.0
455,Havre-Saint-Pierre,CA,2020-04-18 01:24:28,50.23,-63.6,24.8,68,1,8.05,clear sky,0.0,0.0
456,Sault Sainte Marie,CA,2020-04-18 01:21:30,46.52,-84.33,35.6,47,1,6.93,clear sky,0.0,0.0
457,Biasca,CH,2020-04-18 01:25:53,46.36,8.97,48.2,81,97,1.12,overcast clouds,0.0,0.0
458,Svetlogorsk,BY,2020-04-18 01:25:53,52.63,29.73,34.38,82,16,9.51,few clouds,0.0,0.0
459,Klyuchevskiy,RU,2020-04-18 01:25:53,53.53,119.45,25.59,67,100,11.81,overcast clouds,0.0,0.0
460,Assiniboia,CA,2020-04-18 01:22:17,49.63,-105.98,48.85,48,100,18.28,overcast clouds,0.0,0.0
461,Guerrero Negro,MX,2020-04-18 01:25:54,27.98,-114.06,67.17,56,36,16.15,scattered clouds,0.0,0.0
462,Araouane,ML,2020-04-18 01:25:54,18.9,-3.53,89.11,18,0,8.84,clear sky,0.0,0.0
463,Hami,CN,2020-04-18 01:25:54,42.8,93.45,58.06,25,24,7.29,few clouds,0.0,0.0
464,Peniche,PT,2020-04-18 01:25:55,39.36,-9.38,53.01,92,0,2.01,clear sky,0.0,0.0
465,Oyem,GA,2020-04-18 01:25:55,1.6,11.58,69.48,82,93,3.11,light rain,1.64,0.0
466,Koumac,NC,2020-04-18 01:25:56,-20.57,164.28,80.65,67,91,2.26,overcast clouds,0.0,0.0
467,Imbituba,BR,2020-04-18 01:23:56,-28.24,-48.67,68.0,82,19,6.93,light rain,0.56,0.0
468,Praya,CV,2020-04-18 01:25:56,14.92,-23.51,71.6,68,20,13.87,few clouds,0.0,0.0
469,Shenkursk,RU,2020-04-18 01:22:13,62.11,42.9,29.97,98,97,4.36,light snow,0.0,0.18
470,Pokhara,NP,2020-04-18 01:25:56,28.23,83.98,61.41,39,27,5.37,scattered clouds,0.0,0.0
471,Biak,ID,2020-04-18 01:25:57,-0.91,122.88,82.06,73,17,1.57,light rain,0.11,0.0
472,Road Town,VG,2020-04-18 01:25:57,18.42,-64.62,80.01,81,1,15.01,clear sky,0.0,0.0
473,Mani,CO,2020-04-18 01:25:57,4.82,-72.29,84.15,48,68,2.8,broken clouds,0.0,0.0
474,Basco,PH,2020-04-18 01:25:57,20.45,121.97,77.74,90,100,12.3,overcast clouds,0.0,0.0
475,Chissamba,AO,2020-04-18 01:25:58,-12.17,17.33,63.14,62,62,3.15,light rain,1.8,0.0
476,Dukat,RU,2020-04-18 01:25:58,62.55,155.55,3.16,82,97,7.72,overcast clouds,0.0,0.0
477,Calafell,ES,2020-04-18 01:25:58,41.2,1.57,62.01,87,100,0.43,overcast clouds,0.0,0.0
478,Cortez,US,2020-04-18 01:23:49,37.35,-108.59,60.8,21,1,6.93,clear sky,0.0,0.0
479,Caohai,CN,2020-04-18 01:25:59,26.87,104.28,55.18,35,7,5.46,clear sky,0.0,0.0
480,Gusau,NG,2020-04-18 01:25:59,12.16,6.66,79.34,11,46,8.9,scattered clouds,0.0,0.0
481,Cervo,ES,2020-04-18 01:25:59,43.67,-7.41,48.0,1,0,7.7,clear sky,0.0,0.0
482,Lata,PT,2020-04-18 01:24:24,40.16,-8.33,55.99,91,1,1.92,clear sky,0.0,0.0
483,Le Mars,US,2020-04-18 01:25:59,42.79,-96.17,48.2,34,1,5.82,clear sky,0.0,0.0
484,Lincoln,US,2020-04-18 01:24:07,40.8,-96.67,44.6,52,1,5.82,clear sky,0.0,0.0
485,Vorozhba,UA,2020-04-18 01:26:00,51.17,34.22,36.37,81,33,9.13,scattered clouds,0.0,0.0
486,Bermejo,AR,2020-04-18 01:26:00,-32.88,-68.8,69.8,56,0,10.29,clear sky,0.0,0.0
487,Cayenne,GF,2020-04-18 01:22:41,4.93,-52.33,75.2,100,90,6.49,overcast clouds,0.0,0.0
488,Nishihara,JP,2020-04-18 01:26:01,26.18,127.76,77.0,69,40,12.75,scattered clouds,0.0,0.0
489,Broken Hill,AU,2020-04-18 01:26:01,-31.95,141.43,62.6,48,40,5.82,scattered clouds,0.0,0.0
490,Flin Flon,CA,2020-04-18 01:26:01,54.77,-101.86,37.04,85,97,8.93,light rain,0.11,0.0
491,Abalak,RU,2020-04-18 01:26:02,58.13,68.59,45.09,89,94,8.23,light rain,0.56,0.0
492,Tadine,NC,2020-04-18 01:26:02,-21.55,167.88,79.25,57,44,7.81,scattered clouds,0.0,0.0
493,Pryozerne,UA,2020-04-18 01:23:47,45.27,36.33,49.08,78,99,11.79,overcast clouds,0.0,0.0
494,Henties Bay,NA,2020-04-18 01:21:08,-22.12,14.28,57.0,93,0,3.0,clear sky,0.0,0.0
495,San Jeronimo,PE,2020-04-18 01:26:02,-11.95,-75.28,49.5,28,99,2.89,light rain,0.96,0.0
496,Grafton,US,2020-04-18 01:26:03,42.21,-71.69,45.0,38,1,10.29,clear sky,0.0,0.0
497,Palu,ID,2020-04-18 01:26:03,-0.89,119.87,83.35,69,7,2.21,light rain,0.15,0.0
498,Pundaguitan,PH,2020-04-18 01:23:29,6.37,126.17,81.9,75,67,10.51,broken clouds,0.0,0.0
499,Saint-Augustin,CA,2020-04-18 01:26:03,51.23,-58.65,26.01,92,100,6.26,light snow,0.0,0.47
500,Talnakh,RU,2020-04-18 01:26:03,69.49,88.4,28.4,79,96,20.13,overcast clouds,0.0,0.0
501,Kapiri Mposhi,ZM,2020-04-18 01:22:04,-13.97,28.68,63.09,62,2,5.46,clear sky,0.0,0.0
502,Joshimath,IN,2020-04-18 01:26:04,30.57,79.57,50.29,29,99,3.13,moderate rain,4.04,0.0
503,Flinders,AU,2020-04-18 01:26:04,-34.58,150.86,69.01,44,0,4.0,clear sky,0.0,0.0
504,Koumra,TD,2020-04-18 01:26:04,8.91,17.55,88.09,27,51,5.93,broken clouds,0.0,0.0
505,Mount Isa,AU,2020-04-18 01:26:05,-20.73,139.5,89.6,24,15,9.17,few clouds,0.0,0.0
506,Iqaluit,CA,2020-04-18 01:26:05,63.75,-68.51,6.8,84,75,2.24,light snow,0.0,0.0
507,Kysyl-Syr,RU,2020-04-18 01:26:05,63.9,122.76,5.94,88,49,7.76,scattered clouds,0.0,0.0
508,San Francisco,US,2020-04-18 01:25:22,37.77,-122.42,59.0,62,75,13.87,broken clouds,0.0,0.0
509,Meadow Lake,US,2020-04-18 01:26:06,34.8,-106.54,66.2,14,75,11.41,broken clouds,0.0,0.0
510,Half Moon Bay,US,2020-04-18 01:26:06,37.46,-122.43,60.01,71,90,9.17,overcast clouds,0.0,0.0
511,Turbat,PK,2020-04-18 01:26:06,26.0,63.04,75.07,55,0,1.59,clear sky,0.0,0.0
512,Zaysan,KZ,2020-04-18 01:26:06,47.47,84.87,45.27,46,2,0.11,clear sky,0.0,0.0
513,Northam,GB,2020-04-18 01:26:07,51.03,-4.22,51.01,92,88,5.01,light rain,0.33,0.0
514,Codrington,AU,2020-04-18 01:26:07,-38.27,141.97,57.94,67,99,9.95,light rain,0.12,0.0
515,Hun,LY,2020-04-18 01:26:07,29.13,15.95,65.79,45,0,8.32,clear sky,0.0,0.0
516,Sinnamary,GF,2020-04-18 01:26:07,5.38,-52.95,79.68,83,69,11.79,light rain,1.46,0.0
517,Atherton,GB,2020-04-18 01:26:07,53.52,-2.49,45.0,64,82,8.01,broken clouds,0.0,0.0
518,Beringovskiy,RU,2020-04-18 01:26:08,63.05,179.32,20.37,96,99,22.3,light snow,0.0,0.86
519,Sayat,TM,2020-04-18 01:26:08,38.78,63.88,53.6,76,15,5.12,few clouds,0.0,0.0
520,Presidencia Roque Saenz Pena,AR,2020-04-18 01:26:08,-26.79,-60.44,60.91,43,0,3.56,clear sky,0.0,0.0
521,Moramanga,MG,2020-04-18 01:26:08,-18.93,48.2,60.06,73,75,3.13,broken clouds,0.0,0.0
522,Grindavik,IS,2020-04-18 01:26:08,63.84,-22.43,42.8,87,90,34.45,light intensity drizzle,0.0,0.0
523,Blyth,GB,2020-04-18 01:26:09,55.13,-1.51,42.01,72,54,5.82,broken clouds,0.0,0.0
524,Balabac,PH,2020-04-18 01:24:03,7.99,117.06,84.79,73,53,8.81,broken clouds,0.0,0.0
525,Okha,RU,2020-04-18 01:26:09,53.57,142.95,27.84,90,100,16.67,light snow,0.0,0.11
526,High Prairie,CA,2020-04-18 01:26:09,55.43,-116.49,37.89,73,100,9.44,overcast clouds,0.0,0.0
527,Somerset East,ZA,2020-04-18 01:26:10,-32.72,25.59,55.22,49,28,4.32,scattered clouds,0.0,0.0
528,Saint Matthews,US,2020-04-18 01:26:10,38.25,-85.66,51.8,87,90,6.93,light rain,0.0,0.0
529,Juneau,US,2020-04-18 01:26:04,58.3,-134.42,53.6,62,75,9.17,broken clouds,0.0,0.0
530,Severo-Kurilsk,RU,2020-04-18 01:26:11,50.68,156.12,31.64,95,90,13.89,overcast clouds,0.0,0.0
531,Zhangjiakou,CN,2020-04-18 01:26:11,40.81,114.88,51.42,33,98,2.13,overcast clouds,0.0,0.0
532,Oistins,BB,2020-04-18 01:24:49,13.07,-59.53,80.6,74,40,14.99,scattered clouds,0.0,0.0
533,Pahalgam,IN,2020-04-18 01:26:12,34.03,75.33,41.88,34,100,4.65,light rain,1.9,0.0
534,Deputatskiy,RU,2020-04-18 01:26:12,69.3,139.9,-5.89,82,44,2.33,scattered clouds,0.0,0.0
535,Mayaky,UA,2020-04-18 01:25:16,47.44,29.56,48.33,62,89,6.71,overcast clouds,0.0,0.0
536,Bandarbeyla,SO,2020-04-18 01:26:12,9.49,50.81,81.37,74,24,7.87,light rain,0.21,0.0
537,Xiangxiang,CN,2020-04-18 01:25:36,27.73,112.53,60.4,75,99,7.9,overcast clouds,0.0,0.0
538,Talcahuano,CL,2020-04-18 01:26:13,-36.72,-73.12,60.8,93,90,4.7,mist,0.0,0.0
539,Genhe,CN,2020-04-18 01:26:13,50.78,121.52,45.16,41,9,4.63,clear sky,0.0,0.0
540,Yatou,CN,2020-04-18 01:26:13,37.15,122.38,50.07,79,4,8.68,clear sky,0.0,0.0
541,Sibolga,ID,2020-04-18 01:24:49,1.74,98.78,77.16,79,92,4.34,overcast clouds,0.0,0.0
542,Monticello,US,2020-04-18 01:26:14,45.31,-93.79,45.0,30,1,6.64,clear sky,0.0,0.0
543,Sturgeon Falls,CA,2020-04-18 01:26:14,46.36,-79.93,36.0,59,20,8.05,few clouds,0.0,0.0
544,Arcos De La Frontera,ES,2020-04-18 01:26:14,36.75,-5.81,59.0,93,90,1.12,overcast clouds,0.0,0.0
545,Sisimiut,GL,2020-04-18 01:26:15,66.94,-53.67,24.75,94,89,7.99,light snow,0.0,0.38
546,Edd,ER,2020-04-18 01:26:15,13.93,41.69,87.8,57,26,9.13,light rain,0.13,0.0
547,Bandundu,CD,2020-04-18 01:26:15,-3.32,17.37,74.12,80,95,2.53,overcast clouds,0.0,0.0
548,Shaoyang,CN,2020-04-18 01:26:15,27.23,111.45,61.63,72,100,5.61,overcast clouds,0.0,0.0
549,Cururupu,BR,2020-04-18 01:26:15,-1.83,-44.87,76.39,92,99,3.71,light rain,0.26,0.0
550,Gavle,SE,2020-04-18 01:26:16,60.67,17.14,34.0,54,31,4.0,scattered clouds,0.0,0.0
551,Dalvik,IS,2020-04-18 01:26:16,65.97,-18.53,46.4,66,4,23.04,clear sky,0.0,0.0
552,Ulaanbaatar,MN,2020-04-18 01:26:16,47.91,106.88,41.0,65,40,8.95,scattered clouds,0.0,0.0
553,Golkoy,TR,2020-04-18 01:26:16,40.69,37.62,46.4,100,88,4.7,overcast clouds,0.0,0.0
554,Horsham,GB,2020-04-18 01:26:17,51.06,-0.33,46.99,93,89,8.05,light rain,0.0,0.0
555,Manoel Urbano,BR,2020-04-18 01:23:43,-8.84,-69.26,71.13,71,66,0.81,broken clouds,0.0,0.0
556,Springfield,US,2020-04-18 01:26:17,37.22,-93.3,42.01,75,90,13.87,overcast clouds,0.0,0.0
